{"version": 0.6, "generator": "Overpass API 0.7.62.1 084b4234", "osm3s": {"timestamp_osm_base": "2024-09-26T19:04:00Z", "copyright": "The data included in this document is from www.openstreetmap.org. The data is made available under ODbL."}, "elements": [{"type": "node", "id": 7448812152, "lat": 12.9747553, "lon": 77.6015936}, {"type": "node", "id": 7448812153, "lat": 12.9747904, "lon": 77.6022982}, {"type": "node", "id": 7448812154, "lat": 12.9751747, "lon": 77.6022895}, {"type": "node", "id": 9540035555, "lat": 12.9747599, "lon": 77.601989}, {"type": "node", "id": 10295411747, "lat": 12.9751915, "lon": 77.6016431}, {"type": "node", "id": 11283443517, "lat": 12.9751093, "lon": 77.6016319, "tags": {"barrier": "gate"}}, {"type": "node", "id": 11283443518, "lat": 12.9749715, "lon": 77.6016158, "tags": {"barrier": "gate"}}, {"type": "way", "id": 796463148, "nodes": [7448812152, 11283443518, 11283443517, 10295411747, 7448812154, 7448812153, 9540035555, 7448812152], "tags": {"addr:city": "Bangalore", "addr:housenumber": "52", "addr:postcode": "Bengaluru", "addr:street": "Saint Marks Road, Saint Marks Road, Shanthala Nagar, Ashok Nagar", "amenity": "school", "name": "Stracey Memorial High School", "phone": "+91 80 2559 2558", "website": "https://stracey50.com/"}}]}