{"version": 0.6, "generator": "Overpass API 0.7.62.1 084b4234", "osm3s": {"timestamp_osm_base": "2024-09-28T16:32:43Z", "copyright": "The data included in this document is from www.openstreetmap.org. The data is made available under ODbL."}, "elements": [{"type": "node", "id": 459598577, "lat": 12.9643966, "lon": 77.5882598}, {"type": "node", "id": 459598578, "lat": 12.9650712, "lon": 77.5888081}, {"type": "node", "id": 459598594, "lat": 12.9636023, "lon": 77.5891414}, {"type": "node", "id": 459598596, "lat": 12.9649195, "lon": 77.5894902}, {"type": "node", "id": 459598599, "lat": 12.9649804, "lon": 77.5891813}, {"type": "node", "id": 459598602, "lat": 12.9656592, "lon": 77.5893507}, {"type": "node", "id": 459598603, "lat": 12.9657582, "lon": 77.5890808}, {"type": "node", "id": 3773028057, "lat": 12.9603157, "lon": 77.5930493, "tags": {"addr:city": "Bengaluru", "addr:district": "Bengaluru Urban", "addr:full": "44-45/2, 2nd Cross Raja Rammohan Roy Extn Off Lalbagh Double Road", "addr:postcode": "560027", "addr:state": "Karnataka", "amenity": "hospital", "building": "hospital", "name": "HCG Cancer Hospital", "source": "OpenGovernmentData", "website": "https://www.hcgoncology.com/"}}, {"type": "node", "id": 4988304263, "lat": 12.9645264, "lon": 77.5896245}, {"type": "node", "id": 4988304264, "lat": 12.964449, "lon": 77.5900145}, {"type": "node", "id": 4988304265, "lat": 12.963021, "lon": 77.5896489}, {"type": "node", "id": 4988304266, "lat": 12.9633509, "lon": 77.5893521}, {"type": "node", "id": 6939048258, "lat": 12.9605309, "lon": 77.592659, "tags": {"addr:district": "Bengaluru Urban", "addr:full": "No 44-45/2, 2nd Cross, Raja Rammohan Roy Extension, Opposite Double Road", "addr:postcode": "560027", "addr:state": "Karnataka", "amenity": "hospital", "name": "HCG", "source": "OpenGovernmentData"}}, {"type": "node", "id": 6939719899, "lat": 12.9608027, "lon": 77.5911717, "tags": {"addr:district": "Bengaluru Urban", "addr:full": "26, 1st Main, 2nd Cross, Ckc Garden Off Mission Road", "addr:postcode": "560027", "addr:state": "Karnataka", "amenity": "hospital", "name": "Phoenix Hospital, Bengaluru Urban", "source": "OpenGovernmentData"}}, {"type": "node", "id": 7293719494, "lat": 12.96384, "lon": 77.5898682}, {"type": "node", "id": 7293719495, "lat": 12.9638491, "lon": 77.5898319}, {"type": "node", "id": 7293719497, "lat": 12.9651845, "lon": 77.5892237}, {"type": "way", "id": 38758707, "nodes": [459598577, 459598594, 459598596, 459598599, 7293719497, 459598602, 459598603, 459598578, 459598577], "tags": {"addr:city": "Bangalore", "addr:postcode": "560002", "addr:street": "Sampangi Rama Nagar", "amenity": "school", "name": "Mitralaya Girls College", "name:bn": "\u09ae\u09bf\u09a4\u09cd\u09b0\u09be\u09b2\u09df\u09be \u09ae\u09b9\u09bf\u09b2\u09be \u0995\u09b2\u09c7\u099c"}}, {"type": "way", "id": 509638758, "nodes": [4988304263, 4988304264, 7293719494, 7293719495, 4988304265, 4988304266, 4988304263], "tags": {"addr:city": "Bengaluru", "addr:country": "IN", "addr:district": "Bengaluru Urban", "addr:full": "No 8, HCG Towers, P. Kalinga Rao Road, Sampangi Ram Nagar, Bengaluru", "addr:hamlet": "Sampangi Ram Nagar", "addr:housenumber": "8", "addr:postcode": "560027", "addr:state": "Karnataka", "addr:street": "P. Kalinga Rao Road", "amenity": "hospital", "fax": "+918022485962", "name": "HCG Cancer Hospital", "name:bn": "\u098f\u0987\u099a\u09b8\u09bf\u099c\u09bf \u0995\u09cd\u09af\u09be\u09a8\u09cd\u09b8\u09be\u09b0 \u09b9\u09be\u09b8\u09aa\u09be\u09a4\u09be\u09b2", "name:en": "HealthCare Global Enterprises Ltd", "operator:type": "private", "phone": "+918040206000", "source": "OpenGovernmentData", "website": "https://www.hcgoncology.com/"}}]}