{"version": 0.6, "generator": "Overpass API 0.7.62.1 084b4234", "osm3s": {"timestamp_osm_base": "2024-09-28T15:50:35Z", "copyright": "The data included in this document is from www.openstreetmap.org. The data is made available under ODbL."}, "elements": [{"type": "node", "id": 578143351, "lat": 12.9838524, "lon": 77.6060514}, {"type": "node", "id": 578143354, "lat": 12.9840861, "lon": 77.6045102}, {"type": "node", "id": 578143356, "lat": 12.9839105, "lon": 77.6036551}, {"type": "node", "id": 578143360, "lat": 12.9829573, "lon": 77.6033966}, {"type": "node", "id": 578143367, "lat": 12.9822366, "lon": 77.6036172}, {"type": "node", "id": 663596613, "lat": 12.9839813, "lon": 77.6005539}, {"type": "node", "id": 663596614, "lat": 12.9842446, "lon": 77.599777}, {"type": "node", "id": 663596615, "lat": 12.9831904, "lon": 77.6002669}, {"type": "node", "id": 1005544881, "lat": 12.9815051, "lon": 77.6011944, "tags": {"addr:city": "Bangalore", "addr:housenumber": "55", "addr:postcode": "560001", "addr:street": "Infantry Road", "amenity": "hospital", "email": "bengaluru@medinovaindia.com", "fax": "+918022867244", "name": "Mallya Audikesh Diagnostics Center", "phone": "+918022868423", "website": "http://www.medinovaindia.com"}}, {"type": "node", "id": 1449011559, "lat": 12.9825129, "lon": 77.6056433}, {"type": "node", "id": 1517317433, "lat": 12.9825325, "lon": 77.6035109}, {"type": "node", "id": 1517317453, "lat": 12.98232, "lon": 77.603581}, {"type": "node", "id": 1837634257, "lat": 12.984036, "lon": 77.6052566}, {"type": "node", "id": 1837634258, "lat": 12.9840361, "lon": 77.6049416}, {"type": "node", "id": 1837634259, "lat": 12.9840567, "lon": 77.6038001}, {"type": "node", "id": 3942993139, "lat": 12.9819979, "lon": 77.6042809}, {"type": "node", "id": 3942993140, "lat": 12.9821118, "lon": 77.6044576}, {"type": "node", "id": 3942993142, "lat": 12.9821425, "lon": 77.6043642}, {"type": "node", "id": 3942993148, "lat": 12.9827926, "lon": 77.6034001}, {"type": "node", "id": 4030269686, "lat": 12.9821131, "lon": 77.6056163}, {"type": "node", "id": 4030269688, "lat": 12.9825312, "lon": 77.6055732}, {"type": "node", "id": 4676566777, "lat": 12.9842193, "lon": 77.5999264}, {"type": "node", "id": 10761493357, "lat": 12.983533, "lon": 77.5992254}, {"type": "node", "id": 10761493358, "lat": 12.9841666, "lon": 77.5993902}, {"type": "node", "id": 10792855174, "lat": 12.9823029, "lon": 77.6058903}, {"type": "node", "id": 12067529023, "lat": 12.9820187, "lon": 77.6047416}, {"type": "node", "id": 12067529024, "lat": 12.9819362, "lon": 77.6049931}, {"type": "node", "id": 12067529025, "lat": 12.982099, "lon": 77.6050434}, {"type": "node", "id": 12067529026, "lat": 12.981955, "lon": 77.6055304}, {"type": "node", "id": 12067529031, "lat": 12.9824951, "lon": 77.6057117}, {"type": "node", "id": 12067529032, "lat": 12.9823675, "lon": 77.6056758}, {"type": "node", "id": 12112489582, "lat": 12.9841004, "lon": 77.599398}, {"type": "way", "id": 45444044, "nodes": [12067529026, 4030269686, 10792855174, 12067529032, 12067529031, 1449011559, 4030269688, 578143351, 1837634257, 1837634258, 578143354, 1837634259, 578143356, 578143360, 3942993148, 1517317433, 1517317453, 578143367, 3942993139, 3942993142, 3942993140, 12067529023, 12067529024, 12067529025, 12067529026], "tags": {"addr:city": "Shivaji Nagar, Bangalore", "addr:district": "Bengaluru Urban", "addr:full": "Lady Curzon Road, Shivaji Nagar", "addr:postcode": "560001", "addr:state": "Karnataka", "addr:street": "Lady Curzon Road", "amenity": "hospital", "fax": "+91-80-25591325", "healthcare": "hospital", "healthcare:speciality": "Bio-Chemistry; Cardiology; Cardiothoracic Surgery; Dermatology; ENT; General Medicine; General Surgery; Micro-Biology; Neurology; Ophthalmology; Orthopedics Pathology; Pediatric Surgery; Plastic Surgery; Psychiatry; Pulmonology; Radio-Diagnosis;", "name": "Bowring and Lady Curzon Hospitals", "name:kn": "\u0cac\u0ccc\u0cb0\u0cbf\u0c82\u0c97\u0ccd \u0c86\u0cb8\u0ccd\u0caa\u0ca4\u0ccd\u0cb0\u0cc6", "official_name": "Shri Atal Bihari Vajpayee Medical College and Research Institution", "operator:type": "government", "phone": "+91-80-25591325", "source": "OpenGovernmentData", "website": "https://sabvmcri.karnataka.gov.in/"}}, {"type": "way", "id": 52063534, "nodes": [10761493357, 663596615, 663596613, 4676566777, 663596614, 10761493358, 12112489582, 10761493357], "tags": {"addr:city": "Shivaji Nagar, Bangalore", "addr:street": "Venkataswamy Naidu Road", "amenity": "hospital", "healthcare": "hospital", "heritage": "2", "heritage:operator": "nmma", "heritage:website": "https://nmma.nic.in/nmma/exploreBuiltState.do?state=29", "name": "Sir Haji Ismail Gosha Sait Hospital", "name:etymology:wikidata": "Q6084847", "name:kn": "\u0cb8\u0cb0\u0ccd \u0cb9\u0cbe\u0c9c\u0cbf \u0c87\u0cb8\u0ccd\u0cae\u0cc8\u0cb2\u0ccd \u0c97\u0cca\u0cb6 \u0cb8\u0cc8\u0c9f\u0ccd \u0c86\u0cb8\u0ccd\u0caa\u0ca4\u0ccd\u0cb0\u0cc6", "ref:nmma": "KR20010684"}}]}